quaternionTimestamp,quaternionX,quaternionY,quaternionZ,quaternionW,magneticFieldTimestamp,magneticFieldX,magneticFieldY,magneticFieldZ,accelerationTimestamp,accelerationX,accelerationY,accelerationZ,angularSpeedTimestamp,angularSpeedX,angularSpeedY,angularSpeedZ,insTimeStamp,insStatus,yaw,pitch,roll,latitude,longitude,altitude,nedVelX,nedVelY,nedVelZ
1508369,-0.00532040792,-0.00628700061,0.653026819,0.757290065,1508369,0.080740571,-0.229554564,0.319374949,1508369,-0.0235288497,0.173177898,-9.60840511,1508369,-0.000718278345,-6.18852209e-05,0.000803790987,1508369,32896,81.5449448,-0.147446722,-0.932208836,0,0,0,0,0,0
1558931,-0.00529714627,-0.00631134445,0.653018236,0.757297337,1558931,0.0794807896,-0.228339732,0.319335431,1558931,-0.0158518851,0.156340897,-9.63435555,1558931,0.000856300816,-0.000162491691,-0.000147923362,1558931,128,81.5436859,-0.151310414,-0.932010412,0,0,0,0,0,0
1611415,-0.00531244371,-0.00630091457,0.653027773,0.757289171,1611415,0.0794809386,-0.228340536,0.319335997,1611415,-0.00746477768,0.173474461,-9.62062645,1611415,-0.000490024919,-0.000236841384,-0.000118429307,1611415,32896,81.5451126,-0.149248928,-0.932559192,0,0,0,0,0,0
1663989,-0.00531218946,-0.00629207073,0.653030634,0.757286787,1663989,0.0795852914,-0.23085092,0.32207039,1663989,-0.0404214114,0.136571229,-9.56946754,1663989,0.00012026378,0.000679400167,-0.000389102381,1663989,128,81.5455246,-0.148497,-0.931875944,0,0,0,0,0,0
1716311,-0.00531709567,-0.00628273608,0.653014362,0.757300794,1716311,0.0818763524,-0.226995379,0.319451123,1716311,-0.0198932048,0.173675001,-9.60864258,1716311,0.000865587732,-0.00120147946,0.000183752272,1716311,32896,81.5430527,-0.147339851,-0.931599855,0,0,0,0,0,0
1768981,-0.00531123439,-0.00628120592,0.653025806,0.757291079,1768981,0.0794506967,-0.227080539,0.320728511,1768981,-0.015959423,0.157105088,-9.62642479,1768981,0.000631592935,-0.000101182726,0.000513822306,1768981,128,81.5447845,-0.147631675,-0.930978715,0,0,0,0,0,0
1821243,-0.00532357907,-0.00627613254,0.653021097,0.757295072,1821243,0.0807935372,-0.230813533,0.320745051,1821243,-0.0256657805,0.14161101,-9.59217262,1821243,-0.000641468912,-0.000970826251,0.000915036537,1821243,32896,81.5440674,-0.146273375,-0.931669533,0,0,0,0,0,0
1873706,-0.00532692485,-0.00627971767,0.653034747,0.757283211,1873706,0.0794607624,-0.228351176,0.316581756,1873706,-0.00254255603,0.168068558,-9.63276863,1873706,-0.000228367979,-0.000435328577,-0.000640750863,1873706,128,81.5461349,-0.146317288,-0.93223083,0,0,0,0,0,0
1926367,-0.00533547113,-0.00628123153,0.653026402,0.757290363,1926367,0.0783467069,-0.230905384,0.319264621,1926367,-0.0279419236,0.13791731,-9.61674118,1926367,0.000331294956,0.00121278432,0.000772793777,1926367,32896,81.5448761,-0.145819351,-0.933084249,0,0,0,0,0,0
1978654,-0.00532450993,-0.00628450979,0.653045416,0.757274032,1978654,0.0795454606,-0.229597881,0.322087198,1978654,0.021316316,0.197316229,-9.60683155,1978654,0.000333896838,0.000307403039,0.00106788194,1978654,128,81.5477524,-0.146900713,-0.932381928,0,0,0,0,0,0
2031151,-0.00532322936,-0.00627010595,0.653048158,0.757271767,2031151,0.0830531567,-0.226969421,0.313990355,2031151,-0.0521731898,0.159936652,-9.59128284,2031151,0.00130377291,-0.000161788776,0.00103897648,2031151,32896,81.5481491,-0.145743296,-0.931193471,0,0,0,0,0,0
2083673,-0.00531870266,-0.00627849065,0.653039098,0.757279515,2083673,0.0784206018,-0.232154727,0.323390752,2083673,-0.0172338411,0.176298708,-9.57589722,2083673,-0.000498280628,-9.3119801e-05,-0.000878100283,2083673,128,81.5467911,-0.146820754,-0.931426346,0,0,0,0,0,0
2136369,-0.00534613477,-0.00626912853,0.653042257,0.757276714,2136369,0.0770455375,-0.228431925,0.319237173,2136369,-0.0230498016,0.165859565,-9.57070065,2136369,0.00108492305,0.000201472547,0.000172934029,2136369,32896,81.5472565,-0.14395158,-0.933106899,0,0,0,0,0,0
2188743,-0.00533951679,-0.00628010696,0.653045893,0.757273495,2188743,0.0820125043,-0.230770916,0.320797622,2188743,-0.0478815623,0.127588332,-9.64025879,2188743,0.000305046793,-0.000638781115,0.00107095251,2188743,128,81.547821,-0.145394981,-0.933355033,0,0,0,0,0,0
2241266,-0.00534285931,-0.00627471879,0.653042793,0.757276237,2241266,0.0794929266,-0.228340909,0.320718676,2241266,-0.0463587753,0.192987919,-9.61179733,2241266,0.000677670352,0.000386893051,-0.000159394462,2241266,32896,81.547348,-0.144681111,-0.933241129,0,0,0,0,0,0
2293849,-0.00534047699,-0.00628216844,0.653031826,0.757285655,2293849,0.0794510171,-0.227082253,0.32073015,2293849,-0.0483597517,0.162190497,-9.60589027,2293849,0.000292633194,-7.22248806e-05,-0.000384430401,2293849,128,81.5457001,-0.145519331,-0.933589697,0,0,0,0,0,0
2346275,-0.00533360895,-0.006280459,0.653037906,0.757280469,2346275,0.075795956,-0.227213085,0.320576131,2346275,-0.0191111695,0.164320678,-9.62951851,2346275,0.000623828964,0.000494796783,0.00080174813,2346275,32896,81.5466156,-0.145877495,-0.93286705,0,0,0,0,0,0
2398746,-0.00535898609,-0.00627135998,0.653033376,0.757284224,2398746,0.0831788927,-0.229472727,0.319482595,2398746,-0.0187548194,0.1487993,-9.60237503,2398746,0.000200591516,0.000235341373,-0.000118901022,2398746,128,81.5459213,-0.143194363,-0.934387445,0,0,0,0,0,0
2451234,-0.00536087109,-0.00627866108,0.653003156,0.757310152,2451234,0.0795236081,-0.229602933,0.319327742,2451234,-0.0328892544,0.149784878,-9.61275959,2451234,-0.000232525636,0.000613168231,-0.000671827001,2451234,32896,81.5413589,-0.143724099,-0.935091794,0,0,0,0,0,0
2503737,-0.00534269633,-0.00628563156,0.653006434,0.75730747,2503737,0.0820125788,-0.230771095,0.32079789,2503737,-0.010318568,0.156220615,-9.67278481,2503737,0.000254098559,-0.000937201257,0.000516538508,2503737,128,81.5418625,-0.145685077,-0.934036851,0,0,0,0,0,0
2556192,-0.0053300024,-0.00628453912,0.653013766,0.757301211,2556192,0.0782943964,-0.229649425,0.317896932,2556192,-0.0397970751,0.143194944,-9.60362816,2556192,0.00103165652,-0.000538889435,-0.000915210461,2556192,49280,81.5429764,-0.146531105,-0.932854831,0,0,0,0,0,0
2608843,-0.00530869886,-0.00629468681,0.653015852,0.757299542,2608843,0.0808354616,-0.232072234,0.320734054,2608843,-0.0209412798,0.164927766,-9.57923508,2608843,0.000708898995,-0.00134547346,0.000648645218,2608843,30848,81.5432968,-0.149003431,-0.931765735,0,0,0,0,0,0
2661236,-0.00531500578,-0.00627633324,0.653009593,0.757304966,2661236,0.0832527503,-0.230722383,0.323608547,2661236,-0.0191925298,0.173053443,-9.63634014,2661236,0.00136907212,-0.000586013542,-0.00105957966,2661236,39040,81.5423355,-0.146946475,-0.930938303,0,0,0,0,0,0
2713713,-0.00530643715,-0.0062726615,0.652992785,0.75731957,2713713,0.0794717297,-0.228348985,0.317961693,2713713,-0.0439545102,0.14929381,-9.58933258,2713713,-0.000214869622,0.000434205984,-0.000159416348,2713713,128,81.5397797,-0.147289708,-0.92991668,0,0,0,0,0,0
2766280,-0.00528632244,-0.00628987048,0.653007865,0.757306635,2766280,0.0831703544,-0.228207633,0.323633999,2766280,-0.0352873802,0.149000943,-9.58739471,2766280,-0.000101008452,-0.00115353661,-0.000416053925,2766280,32896,81.5420761,-0.150269851,-0.929461777,0,0,0,0,0,0
2819141,-0.00528128678,-0.0062998049,0.653012156,0.75730288,2819141,0.0819720551,-0.229515985,0.32081306,2819141,-0.0245913304,0.15987432,-9.61234665,2819141,0.000398827018,-0.00121789146,0.000308223069,2819141,128,81.5427399,-0.151503503,-0.929769039,0,0,0,0,0,0
2871247,-0.00528350286,-0.00628205994,0.653005183,0.75730902,2871247,0.0807122886,-0.228302076,0.320774168,2871247,-0.0258351024,0.144041747,-9.59062195,2871247,0.000623924891,-0.000292645302,0.000492504798,2871247,32896,81.5416641,-0.14980638,-0.928632021,0,0,0,0,0,0
2923621,-0.00528620183,-0.00628531817,0.652997851,0.757315278,2923621,0.0808057711,-0.230815321,0.322129041,2923621,0.011641046,0.164146438,-9.61003113,2923621,0.000437475974,0.000211285776,-0.00028198678,2923621,128,81.5405655,-0.149896115,-0.929108739,0,0,0,0,0,0
2976186,-0.0052841045,-0.0062958044,0.653001726,0.757311821,2976186,0.0831491575,-0.228215218,0.320877343,2976186,-0.0482165813,0.14713195,-9.60746574,2976186,0.000620621024,-0.00138840068,-0.000152022112,2976186,32896,81.5411606,-0.150958255,-0.929712176,0,0,0,0,0,0
3028823,-0.0052881944,-0.00630928064,0.65299958,0.757313609,3028823,0.0771075413,-0.230958685,0.316458255,3028823,-0.0104993908,0.135838717,-9.56797218,3028823,0.000133807305,0.000201931223,0.000420647673,3028823,128,81.5408554,-0.151824251,-0.931075335,0,0,0,0,0,0
3081161,-0.00526631949,-0.00630729971,0.653006434,0.757307827,3081161,0.0794725269,-0.22835277,0.317965031,3081161,-0.00781570375,0.163033634,-9.57112312,3081161,-9.42507759e-05,-0.00020318618,0.000679326709,3081161,32896,81.541893,-0.153280914,-0.929029882,0,0,0,0,0,0
3133710,-0.00527268415,-0.00629671244,0.653023064,0.757293582,3133710,0.0794726014,-0.228352979,0.317965299,3133710,0.000561864115,0.155601218,-9.63507271,3133710,0.00118485,0.000364034553,-0.000161207281,3133710,128,81.5443878,-0.151865587,-0.928793311,0,0,0,0,0,0
3186190,-0.00526755536,-0.00629489031,0.653036773,0.75728178,3186190,0.0782344788,-0.227132648,0.320684642,3186190,-0.0268783234,0.147131652,-9.57924461,3186190,8.90663359e-05,0.00130558375,3.05050053e-05,3186190,32896,81.5464554,-0.152074426,-0.92821455,0,0,0,0,0,0
3238650,-0.00526741287,-0.00628053444,0.653039753,0.757279277,3238650,0.0819209814,-0.228264704,0.319448858,3238650,-0.0238785408,0.160342008,-9.63160706,3238650,0.000151212327,-0.000319714192,0.000120189972,3238650,128,81.5468979,-0.150835738,-0.927128434,0,0,0,0,0,0
3291224,-0.00526035624,-0.00628424995,0.653025448,0.757291675,3291224,0.0818582028,-0.227013528,0.316703111,3291224,-0.0232555922,0.164223149,-9.62209511,3291224,-0.000936398981,0.00069864362,-6.21513464e-05,3291224,32896,81.5447388,-0.15170379,-0.926791191,0,0,0,0,0,0
3343921,-0.00527425762,-0.00626954297,0.653036594,0.757282138,3343921,0.0757983774,-0.22722137,0.320582926,3343921,-0.0170225911,0.158064663,-9.56906033,3343921,0.000139559153,-9.28121153e-06,0.00146878604,3343921,128,81.5463943,-0.14937368,-0.926899195,0,0,0,0,0,0
3396210,-0.00526629854,-0.00626146235,0.6530388,0.75728035,3396210,0.0806702822,-0.228317752,0.315259993,3396210,0.00350034982,0.181561351,-9.62630749,3396210,0.000886396971,0.000713812653,0.000655298121,3396210,32896,81.5467148,-0.149265409,-0.925604045,0,0,0,0,0,0
3448652,-0.00527447183,-0.00627053017,0.653042614,0.757276893,3448652,0.0807962865,-0.230822593,0.320753157,3448652,-0.0498269722,0.146412194,-9.64791107,3448652,-0.00138395489,0.000123630976,-0.000572199468,3448652,128,81.5473099,-0.149435878,-0.926992774,0,0,0,0,0,0
3501316,-0.0052657933,-0.0062699765,0.653039277,0.757279754,3501316,0.0819736123,-0.22952199,0.320818245,3501316,-0.0374832228,0.172568232,-9.55720711,3501316,0.000637237681,5.57685271e-05,-5.74798323e-05,3501316,32896,81.546814,-0.150041327,-0.926197708,0,0,0,0,0,0
3553619,-0.0052575022,-0.00626158342,0.653035402,0.75728333,3553619,0.0794847608,-0.228354231,0.319348693,3553619,-0.010245529,0.161982611,-9.62483883,3553619,0.00118673686,-0.00068019802,-0.00142083596,3553619,128,81.5462036,-0.149938345,-0.924849093,0,0,0,0,0,0
3606280,-0.00524925115,-0.00626420137,0.653015196,0.757300675,3606280,0.0832748339,-0.231995225,0.320845842,3606280,-0.0484311804,0.142496765,-9.59872055,3606280,2.5536865e-06,-0.000964477193,-0.000645736,3606280,32896,81.5431595,-0.150807589,-0.924325168,0,0,0,0,0,0
3658840,-0.00524280546,-0.00627156626,0.653011322,0.757304013,3658840,0.0807966441,-0.230823994,0.320755005,3658840,-0.039100945,0.135981783,-9.56458282,3658840,0.000408414053,-0.000468532438,-0.000629917718,3658840,128,81.5425797,-0.151933804,-0.924316108,0,0,0,0,0,0
3711317,-0.00525284186,-0.00626097992,0.653021634,0.757295132,3711317,0.079454042,-0.22709243,0.320739448,3711317,0.0152756823,0.167416632,-9.63013077,3711317,-0.000776530476,-7.21379183e-06,-0.00057387352,3711317,32896,81.5441284,-0.150251523,-0.924396873,0,0,0,0,0,0
3763797,-0.00523618516,-0.00624427618,0.653023899,0.757293463,3763797,0.0807659775,-0.229562357,0.322146028,3763797,-0.0442408212,0.145267934,-9.63495255,3763797,0.000383463921,-0.0011765362,-0.000844022492,3763797,128,81.5444489,-0.150045812,-0.921701729,0,0,0,0,0,0
3816265,-0.0052488423,-0.00622451259,0.653026879,0.757291019,3816265,0.0807032958,-0.228311434,0.319400489,3816265,6.85389386e-05,0.179966599,-9.61536407,3816265,0.000114323571,0.000821428024,-0.00112267653,3816265,32896,81.5448685,-0.147380084,-0.92132163,0,0,0,0,0,0
3868928,-0.00523512857,-0.00622468628,0.653021038,0.757296085,3868928,0.0794957057,-0.228352025,0.3207286,3868928,-0.0269503333,0.14356792,-9.62392139,3868928,-6.09925482e-05,-0.000896096579,0.000287110917,3868928,128,81.5439835,-0.148428485,-0.920143425,0,0,0,0,0,0
3921327,-0.0052451957,-0.00622410886,0.653035998,0.757283211,3921327,0.0843389183,-0.226917252,0.322326094,3921327,-0.0372079462,0.161482185,-9.59637737,3921327,-0.00137896813,0.000711148605,-7.49356113e-05,3921327,32896,81.5462418,-0.147606894,-0.920976698,0,0,0,0,0,0
3973703,-0.00524106948,-0.00622082036,0.65305382,0.757267892,3973703,0.0757468641,-0.225968972,0.319218874,3973703,-0.039816808,0.160792261,-9.58054543,3973703,0.00027000648,2.77592335e-06,0.00037429668,3973703,128,81.5489273,-0.147608653,-0.920375824,0,0,0,0,0,0
4026096,-0.00525220716,-0.00621693581,0.653050363,0.757270813,4026096,0.0830987245,-0.226966083,0.319515407,4026096,-0.010311652,0.164736301,-9.63570595,4026096,-0.000257040141,0.000492666732,0.000190159772,4026096,32896,81.5484009,-0.146442235,-0.921051145,0,0,0,0,0,0
4078731,-0.00524494471,-0.00622722693,0.653030992,0.757287502,4078731,0.0818158984,-0.227029845,0.311189592,4078731,0.00379313994,0.155057341,-9.60725784,4078731,-0.000547653064,0.000255463528,0.000948143657,4078731,128,81.5454865,-0.147902295,-0.921187162,0,0,0,0,0,0
4131235,-0.0052546924,-0.00622453308,0.653035045,0.757283866,4131235,0.0820161551,-0.230783999,0.320809007,4131235,-0.00356998574,0.153147578,-9.59284019,4131235,-0.00155223033,0.00105731457,0.000165727455,4131235,32896,81.5461044,-0.146934032,-0.921832383,0,0,0,0,0,0
4183619,-0.00525606191,-0.00622716732,0.653042376,0.757277489,4183619,0.0796100125,-0.23213245,0.319315761,4183619,-0.0404208824,0.203225076,-9.60870647,4183619,-0.000223453389,-0.000583424931,2.96300277e-06,4183619,128,81.5472183,-0.147051185,-0.922149777,0,0,0,0,0,0
4236237,-0.00525706029,-0.00622601667,0.653052568,0.757268727,4236237,0.0794753432,-0.228361756,0.317973644,4236237,-0.0227755327,0.143167078,-9.57224369,4236237,-6.86568674e-05,0.000992354238,0.000445712823,4236237,49280,81.5487595,-0.146864265,-0.92215234,0,0,0,0,0,0
4288706,-0.00525038643,-0.00622936105,0.653055906,0.757265925,4288706,0.078309238,-0.229660898,0.319289953,4288706,-0.00573577639,0.16682449,-9.60238647,4288706,7.69249164e-06,-0.00133326137,0.000239046291,4288706,30848,81.549263,-0.147649899,-0.921824038,0,0,0,0,0,0
4341220,-0.00527105248,-0.00622818107,0.653091848,0.757234812,4341220,0.080683291,-0.228322595,0.316646904,4341220,-0.0330249108,0.151683584,-9.64122772,4341220,-0.000579611398,-0.000561502646,0.000523973722,4341220,39040,81.5547028,-0.145957053,-0.923536003,0,0,0,0,0,0
4393968,-0.00528247328,-0.00622591376,0.653104842,0.757223547,4393968,0.0782574266,-0.228407875,0.317924052,4393968,-0.0114450585,0.151633561,-9.55640125,4393968,0.000962654362,-1.99549831e-05,0.000376148615,4393968,128,81.5566635,-0.144889683,-0.924359858,0,0,0,0,0,0
4446177,-0.00529535906,-0.00621681428,0.653110862,0.757218361,4446177,0.0831007957,-0.226973355,0.319521904,4446177,-0.0177650806,0.16919443,-9.59127617,4446177,0.000489277067,-3.92262591e-05,-0.00134432735,4446177,32896,81.5575638,-0.14312835,-0.924798191,0,0,0,0,0,0
4498822,-0.0053018895,-0.00622004084,0.653102875,0.757225156,4498822,0.0806228966,-0.22580345,0.319432884,4498822,-0.0418371707,0.167316824,-9.6304388,4498822,0.000162049662,-0.000730999047,0.0002626325,4498822,128,81.5563507,-0.142929316,-0.925604761,0,0,0,0,0,0
4551230,-0.00532323634,-0.0062023676,0.653107762,0.757220924,4551230,0.083090432,-0.226977989,0.318144679,4551230,-0.0120751094,0.17020002,-9.59558392,4551230,-0.00115445256,-0.000450901221,-0.000583984889,4551230,32896,81.5570755,-0.139792144,-0.926135302,0,0,0,0,0,0
4603780,-0.0053022881,-0.00620879186,0.653098583,0.757228911,4603780,0.0782598481,-0.227140218,0.323456168,4603780,-0.0366894901,0.190140992,-9.63624763,4603780,0.000710082706,-0.000313562341,-0.000694043469,4603780,128,81.5557022,-0.141928613,-0.9247967,0,0,0,0,0,0
4656277,-0.00530745555,-0.00620568963,0.653099775,0.757227898,4656277,0.0795917064,-0.230875015,0.322092503,4656277,-0.0446851812,0.17654115,-9.61321831,4656277,0.000845914474,-0.00204431615,-0.000261743553,4656277,32896,81.5558701,-0.141271263,-0.925013125,0,0,0,0,0,0
4708789,-0.0053250934,-0.00618246989,0.653085291,0.757240474,4708789,0.0807582662,-0.229577407,0.320777655,4708789,0.00604348071,0.147766799,-9.57577324,4708789,0.00139610679,-0.000107619329,5.11677936e-05,4708789,128,81.5536423,-0.137954205,-0.924802959,0,0,0,0,0,0
4761216,-0.00531694014,-0.00616590306,0.653078794,0.757246196,4761216,0.083175756,-0.22822763,0.323653013,4761216,-0.0249184705,0.169290602,-9.62438679,4761216,0.000996398274,-0.000202398398,-0.000230540056,4761216,32896,81.5526428,-0.13713479,-0.922854364,0,0,0,0,0,0
4813693,-0.0053320704,-0.00616945093,0.653076172,0.757248282,4813693,0.0782483816,-0.228418738,0.316552132,4813693,-0.0313072391,0.139401123,-9.62243843,4813693,0.000168757746,0.000501836766,-0.00012265658,4813693,128,81.5522537,-0.136313409,-0.924432337,0,0,0,0,0,0
4866148,-0.00532653555,-0.00617238088,0.653069019,0.757254601,4866148,0.0783119202,-0.229672238,0.319299519,4866148,-0.0150083527,0.178943545,-9.57839775,4866148,-0.000626195688,0.00138871395,-0.00014340179,4866148,32896,81.5511703,-0.136990756,-0.924170136,0,0,0,0,0,0
4919034,-0.00533641735,-0.00617521489,0.653070331,0.757253349,4919034,0.0808945894,-0.233354121,0.322124928,4919034,-0.0195323005,0.169420913,-9.63432789,4919034,0.000266466988,-0.000185103621,-0.000358377118,4919034,128,81.5513763,-0.136495456,-0.925240099,0,0,0,0,0,0
4971305,-0.00533344876,-0.00618296862,0.653070807,0.757252812,4971305,0.0794674978,-0.228376821,0.316604704,4971305,-0.0431257002,0.134080723,-9.60713673,4971305,0.000152162276,0.000926475506,-0.000121588819,4971305,32896,81.5514603,-0.137389779,-0.925562859,0,0,0,0,0,0
5023819,-0.00533141615,-0.00617895136,0.653071702,0.757252157,5023819,0.0820305273,-0.230794892,0.322201371,5023819,-0.0124415001,0.178417027,-9.56865501,5023819,-0.000658002216,0.000413451111,9.56794247e-05,5023819,128,81.55159,-0.137192264,-0.925086021,0,0,0,0,0,0
5076254,-0.00533282291,-0.00620310521,0.65304935,0.75727123,5076254,0.0807490945,-0.229586348,0.31940335,5076254,-0.0489583462,0.170670524,-9.60373688,5076254,-0.000679183286,-0.00139956421,-0.000139850657,5076254,32896,81.548233,-0.139210165,-0.927011669,0,0,0,0,0,0
5129080,-0.00531043345,-0.00621780101,0.653066695,0.757256269,5129080,0.08083231,-0.232105076,0.319381326,5129080,0.00252049835,0.161006659,-9.58094978,5129080,6.91181049e-06,-0.000980796991,0.000673162285,5129080,128,81.5508804,-0.142139718,-0.926171899,0,0,0,0,0,0
5181308,-0.00534927938,-0.00621296233,0.653056443,0.757264912,5181308,0.0783342794,-0.229669929,0.322061568,5181308,-0.0478548184,0.135511965,-9.56898499,5181308,0.00014600181,0.000768015161,0.000704934821,5181308,32896,81.549324,-0.138825133,-0.929178894,0,0,0,0,0,0
5233518,-0.00531519111,-0.00622105552,0.653031707,0.75728631,5233518,0.0782714859,-0.228418276,0.319315672,5233518,-0.0224479809,0.157403946,-9.61125183,5233518,-5.0032977e-06,0.00072486524,0.00030312594,5233518,128,81.5455933,-0.142108813,-0.926821828,0,0,0,0,0,0
5286169,-0.00532329176,-0.00621337304,0.653030336,0.757287621,5286169,0.0806671977,-0.227073625,0.319431126,5286169,-0.00889982283,0.137781143,-9.6240263,5286169,-0.00162171526,0.00150332903,0.000295772683,5286169,32896,81.545372,-0.140837684,-0.926949441,0,0,0,0,0,0
5338727,-0.00528956065,-0.00623104814,0.6530146,0.757301271,5338727,0.0782105178,-0.225896373,0.322099298,5338727,-0.0220761187,0.158616871,-9.56046486,5338727,-0.000283926958,0.000549520832,0.000356493983,5338727,128,81.5430145,-0.14491494,-0.925342023,0,0,0,0,0,0
5391215,-0.00530015258,-0.00622356543,0.653005242,0.757309318,5391215,0.0819692686,-0.229548723,0.319460392,5391215,0.00249707233,0.166465878,-9.6044693,5391215,0.000240147812,-0.000646988978,0.00012567034,5391215,32896,81.5415955,-0.143484429,-0.925699413,0,0,0,0,0,0
5443824,-0.00530049345,-0.00623029564,0.652991831,0.757320821,5443824,0.079606019,-0.23088482,0.323483407,5443824,-0.0265193917,0.161682338,-9.63929653,5443824,0.000269520096,-0.000273570186,-0.00141002564,5443824,128,81.5395737,-0.144059345,-0.926230192,0,0,0,0,0,0
5496276,-0.00528855994,-0.00623547612,0.652985156,0.757326603,5496276,0.0807203129,-0.228331551,0.320800811,5496276,-0.0250274371,0.139587581,-9.61920738,5496276,-7.17099756e-05,0.00110219372,0.000501319766,5496276,32896,81.5385666,-0.145410076,-0.925580859,0,0,0,0,0,0
5548713,-0.00529136416,-0.00623757951,0.652997792,0.757315695,5548713,0.0807420388,-0.228325799,0.323560089,5548713,-0.00879971124,0.165108323,-9.61990356,5548713,0.000166053884,-0.000641329156,0.000697841402,5548713,128,81.5404892,-0.14536728,-0.925984144,0,0,0,0,0,0
5601234,-0.00528620742,-0.00625199731,0.652979016,0.757331729,5601234,0.0819804296,-0.229547441,0.320841134,5601234,-0.0436026305,0.152796477,-9.60766411,5601234,-0.000851321965,0.000450029504,-0.000229493249,5601234,32896,81.5376663,-0.147027254,-0.92661202,0,0,0,0,0,0
5653731,-0.00528766075,-0.00624537887,0.652985215,0.757326484,5653731,0.0794086307,-0.225862846,0.319395512,5653731,-0.0212815944,0.164859191,-9.58370113,5653731,-0.000114049762,-0.00144764048,0.00039007701,5653731,128,81.5385895,-0.146336585,-0.926243901,0,0,0,0,0,0
5706262,-0.00530373817,-0.00624962151,0.652967155,0.757341921,5706262,0.084448345,-0.230723098,0.319553703,5706262,-0.0415320769,0.140135184,-9.63955498,5706262,0.000912528252,-0.000861982175,-0.0011268144,5706262,32896,81.5358658,-0.145523846,-0.927953303,0,0,0,0,0,0
5758783,-0.00531301647,-0.00623125071,0.652976394,0.757334054,5758783,0.0783452243,-0.230944797,0.317917824,5758783,0.00638936367,0.165956646,-9.61395168,5758783,-0.000968076987,-0.000461925461,0.000641510356,5758783,128,81.5372391,-0.143223971,-0.927385449,0,0,0,0,0,0
5811298,-0.00531299273,-0.0062454557,0.65297997,0.757330835,5811298,0.0819597244,-0.229557231,0.318085998,5811298,-0.038174212,0.168048203,-9.60142994,5811298,-0.00101667526,-0.000105185201,0.000203722622,5811298,32896,81.537796,-0.144454077,-0.928447068,0,0,0,0,0,0
5863680,-0.00530786673,-0.00624624081,0.652962148,0.757346272,5863680,0.0807626992,-0.229594335,0.320792943,5863680,-0.0138032781,0.171528906,-9.64150143,5863680,0.000337525038,6.69182045e-05,0.000164998695,5863680,128,81.5351028,-0.144927666,-0.928057432,0,0,0,0,0,0
5916099,-0.00530293491,-0.00627708714,0.652947068,0.757358968,5916099,0.0831888691,-0.229510218,0.319516301,5916099,-0.0622583143,0.131963432,-9.59675598,5916099,-0.000644440297,-0.000147730811,-0.00103977928,5916099,49280,81.5328674,-0.147992,-0.929935098,0,0,0,0,0,0
5969108,-0.00530625135,-0.00627260935,0.652952313,0.757354498,5969108,0.0794511884,-0.227125019,0.31938684,5969108,-0.00429400988,0.16659683,-9.63121605,5969108,-0.000480926363,-0.000647198351,0.000679119956,5969108,30848,81.5336609,-0.147348836,-0.929888785,0,0,0,0,0,0
6021292,-0.0053165229,-0.00627385685,0.652948201,0.757358015,6021292,0.081899263,-0.227035999,0.320870072,6021292,-0.047694914,0.152154982,-9.59571362,6021292,-0.000622479711,7.89865153e-05,0.000175365712,6021292,39040,81.5330276,-0.146693572,-0.93087256,0,0,0,0,0,0
6073771,-0.00531941978,-0.00627865456,0.652929723,0.75737381,6073771,0.0820234269,-0.230811194,0.320833981,6073771,-0.00416858867,0.153709173,-9.5756731,6073771,-0.000511037186,-5.76889142e-05,-0.000707296887,6073771,128,81.5302505,-0.146915808,-0.931479692,0,0,0,0,0,0
6126344,-0.0053249076,-0.00627889624,0.652936816,0.757367611,6126344,0.0869082063,-0.230633423,0.322418958,6126344,-0.0266287848,0.165414393,-9.5760479,6126344,-0.000594826881,2.48869183e-05,0.00228140177,6126344,32896,81.5313187,-0.146517441,-0.931975424,0,0,0,0,0,0
6178720,-0.00532522472,-0.00628708489,0.652948737,0.757357359,6178720,0.0818165019,-0.224519283,0.320894241,6178720,-0.0126878582,0.148236752,-9.66093826,6178720,0.000133646652,-0.00040412118,0.000545079354,6178720,128,81.5331345,-0.147189736,-0.932617962,0,0,0,0,0,0
6231215,-0.00533296214,-0.00628859596,0.65293175,0.757371902,6231215,0.0843254551,-0.226951852,0.3195934,6231215,-0.0310653783,0.144549996,-9.57849121,6231215,-0.00110408757,0.002070243,0.000911613926,6231215,32896,81.5305634,-0.146762803,-0.93339932,0,0,0,0,0,0
6283599,-0.00534404395,-0.00628428347,0.652922988,0.757379472,6283599,0.0806287378,-0.225824699,0.319451958,6283599,-0.019055184,0.172536135,-9.60634232,6283599,0.00012213341,-0.000285954564,-0.000418421812,6283599,128,81.5292282,-0.145570189,-0.934036732,0,0,0,0,0,0
6336244,-0.005344979,-0.00629239902,0.652908027,0.757392287,6336244,0.0770145208,-0.227213904,0.319285274,6336244,-0.0429168567,0.172011122,-9.64541817,6336244,-0.000251977937,-0.000756599999,0.00094364211,6336244,32896,81.5269775,-0.146222979,-0.934722126,0,0,0,0,0,0
6388878,-0.00533482479,-0.0062890267,0.652920187,0.757381856,6388878,0.0819302499,-0.22829932,0.319480509,6388878,-0.0255046766,0.156931311,-9.57779884,6388878,-0.000126921805,-0.000150705455,0.00109312311,6388878,128,81.5288162,-0.14667505,-0.933590949,0,0,0,0,0,0
6441356,-0.00533477217,-0.00629636832,0.652919233,0.757382631,6441356,0.0807425827,-0.229605466,0.318038613,6441356,-0.0472087935,0.151331738,-9.6218338,6441356,0.000371530652,0.000612480449,0.000570730306,6441356,32896,81.5286865,-0.147317305,-0.934135556,0,0,0,0,0,0
6493731,-0.00533374958,-0.00630144402,0.652901053,0.757398307,6493731,0.0795149356,-0.22838062,0.322136939,6493731,-0.000947155524,0.173397869,-9.61602688,6493731,-0.000435108319,-0.000473440508,0.00071776798,6493731,128,81.5259399,-0.147856772,-0.93442297,0,0,0,0,0,0
6546244,-0.00532442052,-0.00629758509,0.652889967,0.757407963,6546244,0.079452008,-0.227128536,0.319390386,6546244,-0.0332829468,0.15415448,-9.59554005,6546244,0.000474172877,-1.85108511e-05,-0.000965487212,6546244,32896,81.5242538,-0.148233563,-0.93332237,0,0,0,0,0,0
6598890,-0.0053230701,-0.00630313531,0.652882576,0.757414162,6598890,0.0808883309,-0.233374566,0.320761293,6598890,-0.0296757482,0.160094172,-9.59747314,6598890,8.47815536e-05,0.000382902334,0.000677017961,6598890,128,81.5231552,-0.148825288,-0.933619142,0,0,0,0,0,0
6651132,-0.00533033675,-0.00630723406,0.652889729,0.757408023,6651132,0.0806401297,-0.22582446,0.320833981,6651132,-0.0344290659,0.140168458,-9.58538437,6651132,0.00152546121,-0.000602265471,-0.000824229326,6651132,128,81.524231,-0.148628563,-0.934557736,0,0,0,0,0,0
6703663,-0.00533020636,-0.00628865883,0.652908981,0.757391512,6703663,0.080692105,-0.22707884,0.322200626,6703663,-0.0160740688,0.136065066,-9.56496429,6703663,-0.000263424823,0.000995090697,0.000141767785,6703663,128,81.5271225,-0.147002473,-0.933160365,0,0,0,0,0,0
6756186,-0.00533520384,-0.00629974017,0.652941585,0.757363319,6756186,0.0794826448,-0.2283905,0.317999065,6756186,-0.0344600081,0.164705649,-9.62707424,6756186,0.000371445669,-0.00216347165,-0.000435482245,6756186,32896,81.5320663,-0.147550032,-0.934429705,0,0,0,0,0,0
6808795,-0.00534696598,-0.00629795529,0.652917206,0.7573843,6808795,0.0819503814,-0.229565173,0.316710889,6808795,-0.0446620956,0.149427682,-9.61765099,6808795,-0.00079760002,-0.000649543363,0.000558157917,6808795,128,81.5283813,-0.146545172,-0.935312152,0,0,0,0,0,0
6861285,-0.00534342369,-0.00629978394,0.652912736,0.757388175,6861285,0.0819718838,-0.229558438,0.319469452,6861285,-0.00405867631,0.166603267,-9.59976387,6861285,-0.00063570519,0.00154961215,-0.000584292226,6861285,128,81.5277023,-0.146974459,-0.935140789,0,0,0,0,0,0
6913675,-0.00533384504,-0.00630780868,0.652908623,0.757391632,6913675,0.0782946497,-0.229694948,0.316556007,6913675,-0.0307373609,0.171633065,-9.61750603,6913675,0.000528224744,-0.000590356649,0.001292523,6913675,128,81.5270996,-0.148392543,-0.934909105,0,0,0,0,0,0
6966181,-0.00535677467,-0.00630740961,0.652915001,0.757385969,6966181,0.0820239186,-0.230813369,0.320836276,6966181,-0.0205733776,0.146144271,-9.64057732,6966181,0.000398807926,-0.000188907958,0.000488871709,6966181,32896,81.5280609,-0.146634385,-0.936870873,0,0,0,0,0,0
7018938,-0.00532877026,-0.00630181329,0.652910054,0.75739044,7018938,0.0795041993,-0.228384256,0.320757747,7018938,-0.0281048641,0.165171817,-9.58133793,7018938,0.000556542538,0.000517524662,0.00121517805,7018938,128,81.5273056,-0.148250178,-0.9340204,0,0,0,0,0,0
7071114,-0.0053423834,-0.00631508324,0.652905703,0.757394016,7071114,0.0831274092,-0.228262976,0.316773981,7071114,-0.0188654568,0.147329271,-9.64467812,7071114,0.00111443875,-0.00130539306,0.000234024599,7071114,128,81.5266647,-0.148388624,-0.936193943,0,0,0,0,0,0
7123591,-0.00533144036,-0.00631293328,0.65289247,0.757405579,7123591,0.0768566504,-0.224720746,0.309655815,7123591,-0.0442738086,0.155591935,-9.5845623,7123591,-0.000161248958,0.00104329991,0.00185553497,7123591,128,81.5246582,-0.149037242,-0.935080707,0,0,0,0,0,0
7176184,-0.0053364248,-0.00630808156,0.652882338,0.757414222,7176184,0.0819610506,-0.229561761,0.318089873,7176184,-0.0139783677,0.174114242,-9.59241295,7176184,0.000344079221,0.000261581037,-0.00073821214,7176184,32896,81.5231247,-0.148255631,-0.935148358,0,0,0,0,0,0
7228705,-0.00533586368,-0.00630938634,0.652850747,0.75744158,7228705,0.0807643831,-0.22960031,0.320798188,7228705,-0.0104833264,0.149797112,-9.62589264,7228705,0.000272371573,-0.00126257574,-0.000424725935,7228705,128,81.5183411,-0.148449942,-0.935190916,0,0,0,0,0,0
7281288,-0.00533494167,-0.00629739743,0.652847052,0.757444859,7281288,0.0807015225,-0.228348389,0.318051845,7281288,-0.0254221037,0.1565786,-9.57291985,7281288,0.000405827072,-0.000376815617,-0.000128762797,7281288,128,81.5177612,-0.147482932,-0.934213281,0,0,0,0,0,0
7333680,-0.00532966387,-0.00629259646,0.652834117,0.757455945,7333680,0.0770045966,-0.227220714,0.317909777,7333680,-0.0368625,0.152132183,-9.57268715,7333680,0.000356589444,0.000265452545,0.000364933163,7333680,128,81.5158081,-0.147476986,-0.933393538,0,0,0,0,0,0
7386065,-0.00533874612,-0.00627198862,0.652832508,0.757457435,7386065,0.0819207728,-0.228306502,0.318104446,7386065,-0.0385329276,0.17278564,-9.62916374,7386065,0.000796279404,0.000399973942,-0.00072939368,7386065,32896,81.5155334,-0.145010889,-0.932639778,0,0,0,0,0,0
7438699,-0.00533121033,-0.0062761805,0.652840614,0.75745064,7438699,0.0830890685,-0.225737751,0.322319239,7438699,-0.0130220698,0.129330844,-9.62054443,7438699,0.000404625433,-0.000268475735,-0.000303259119,7438699,128,81.5167542,-0.145928636,-0.932300627,0,0,0,0,0,0
7491273,-0.00534187956,-0.00626887567,0.65283376,0.757456481,7491273,0.0843690932,-0.228218392,0.3195889,7491273,-0.0373612158,0.147892147,-9.5692234,7491273,5.06623182e-05,0.000340815634,-0.00174541026,7491273,128,81.5157166,-0.1445048,-0.932678938,0,0,0,0,0,0
7543803,-0.00533417054,-0.00627342472,0.652836561,0.757454157,7543803,0.0759743452,-0.232295573,0.320572406,7543803,-0.0379070118,0.157464102,-9.66311836,7543803,0.000221074792,0.000173807377,0.000108980574,7543803,128,81.5161362,-0.145473018,-0.932350636,0,0,0,0,0,0
7596083,-0.00534677925,-0.00626791781,0.652837217,0.757453442,7596083,0.080724515,-0.228347033,0.320814908,7596083,-0.0194530208,0.171346545,-9.60369015,7596083,-2.61645764e-05,0.000879659434,-5.01172617e-05,7596083,49280,81.516243,-0.144050807,-0.933033228,0,0,0,0,0,0
7648796,-0.00534869172,-0.00626715738,0.652834117,0.757456124,7648796,0.0806834549,-0.227089912,0.32082811,7648796,-0.021037925,0.141738072,-9.60984421,7648796,-0.00086603174,0.00103889417,0.000550805125,7648796,30848,81.5157623,-0.143845603,-0.933141887,0,0,0,0,0,0
7701206,-0.00535115087,-0.00626440858,0.652815759,0.757471979,7701206,0.0832034051,-0.229520276,0.320907176,7701206,0.00174668105,0.144891351,-9.68169403,7701206,0.000828398857,-0.000197544694,-0.000483869575,7701206,128,81.5129852,-0.143445686,-0.93314606,0,0,0,0,0,0
7753677,-0.00533424877,-0.00627312204,0.652827322,0.757461965,7753677,0.079506427,-0.228392601,0.320765167,7753677,-0.0404331237,0.143088788,-9.56820107,7753677,-0.000562660396,0.000879201689,0.000910403673,7753677,128,81.5147552,-0.145452157,-0.932333171,0,0,0,0,0,0
7806155,-0.00533928676,-0.00627254229,0.652816474,0.757471383,7806155,0.0808083937,-0.230866984,0.320793837,7806155,-0.0315594003,0.163745403,-9.61920071,7806155,-3.23136337e-05,0.000873817713,-0.00183927221,7806155,32896,81.5130997,-0.145038307,-0.932725012,0,0,0,0,0,0
7858781,-0.0053420458,-0.00626206445,0.652822018,0.757466614,7858781,0.0819550306,-0.228304133,0.322249055,7858781,-0.0107761659,0.165227383,-9.63440228,7858781,0.00069610076,-0.00115886307,0.000768012833,7858781,128,81.5139313,-0.143915609,-0.932181478,0,0,0,0,0,0
7911191,-0.00534288958,-0.00625745719,0.65282172,0.757466912,7911191,0.0843601078,-0.2282276,0.318214893,7911191,-0.0103914216,0.147838414,-9.57604694,7911191,0.000130313914,0.00300330902,0.00090023037,7911191,128,81.5138779,-0.143453002,-0.931910217,0,0,0,0,0,0
7963497,-0.00535117462,-0.00625168253,0.652832985,0.757457197,7963497,0.079559736,-0.22965163,0.322135687,7963497,-0.00811324455,0.169916332,-9.61438179,7963497,0.000244943425,0.000194409164,-0.000689404085,7963497,128,81.5155792,-0.1423181,-0.932199299,0,0,0,0,0,0
8016175,-0.00533847604,-0.00623700069,0.652834177,0.757456422,8016175,0.0771227553,-0.229739517,0.322033346,8016175,-0.0190060548,0.156133994,-9.63590717,8016175,-0.000517272623,-0.000456836598,-0.000373065472,8016175,32896,81.5157318,-0.141992435,-0.929998815,0,0,0,0,0,0
8069097,-0.00532440376,-0.00624558842,0.652822673,0.757466316,8069097,0.078339681,-0.230967164,0.316555589,8069097,-0.0355372019,0.177315429,-9.57331657,8069097,-7.38059171e-05,-0.000988985063,-0.000190609135,8069097,128,81.5140076,-0.143804699,-0.92941761,0,0,0,0,0,0
8121368,-0.00532021467,-0.0062546609,0.652810693,0.757476568,8121368,0.0820693895,-0.232086852,0.320837528,8121368,-0.0246766545,0.184031785,-9.61467648,8121368,0.00182630145,-0.000331541058,-0.00131958793,8121368,128,81.512207,-0.1449202,-0.929730415,0,0,0,0,0,0
8173663,-0.00530945743,-0.00626172218,0.652813375,0.757474303,8173663,0.0783207417,-0.229704738,0.319328755,8173663,-0.052786056,0.157159239,-9.61845398,8173663,-0.000441115815,-0.000445890066,-0.000469544902,8173663,128,81.512619,-0.146334574,-0.929325521,0,0,0,0,0,0
8226324,-0.00530404132,-0.00625862367,0.652806103,0.757480681,8226324,0.0818832219,-0.227061972,0.318128884,8226324,-0.0133964326,0.156693906,-9.61385536,8226324,-0.00123604084,-0.000365035434,0.00114667229,8226324,32896,81.5115128,-0.1464798,-0.928622127,0,0,0,0,0,0
8278769,-0.00530281756,-0.00624850998,0.652791262,0.757493556,8278769,0.0808019042,-0.229608476,0.324952662,8278769,-0.024758691,0.171204552,-9.62115669,8278769,-0.000168080674,-0.00122912612,-0.000391121954,8278769,128,81.5092545,-0.14571172,-0.927756369,0,0,0,0,0,0
8331361,-0.00531938951,-0.00625430979,0.652796328,0.757489026,8331361,0.0819253251,-0.228322804,0.318119973,8331361,-0.0257528424,0.171203345,-9.62811279,8331361,-4.28594649e-05,0.000285239657,0.000878011342,8331361,128,81.5100327,-0.144969136,-0.929629862,0,0,0,0,0,0
8383579,-0.00531274546,-0.00624319445,0.652802646,0.757483602,8383579,0.0795204192,-0.228400394,0.322155118,8383579,-0.017574735,0.148715883,-9.59092522,8383579,2.81499233e-05,0.0017421114,-4.18676063e-05,8383579,128,81.5109711,-0.144493565,-0.928222775,0,0,0,0,0,0
8436146,-0.00532578491,-0.00623074733,0.652783453,0.757500291,8436146,0.0819468647,-0.228316888,0.320878685,8436146,-0.021585824,0.166762203,-9.59856224,8436146,-0.000106595224,0.000268293545,0.000388967805,8436146,32896,81.5080414,-0.142461345,-0.928419769,0,0,0,0,0,0
8488693,-0.00534260925,-0.00623193616,0.652756751,0.757523119,8488693,0.0807084963,-0.227095917,0.323598385,8488693,-0.0262640622,0.163155228,-9.64977455,8488693,0.000172788976,-0.000579883868,5.5167824e-05,8488693,128,81.5040131,-0.141338706,-0.929964244,0,0,0,0,0,0
8541164,-0.00533808954,-0.00623472547,0.652730525,0.757545769,8541164,0.0782913119,-0.228448123,0.320725232,8541164,-0.0233602673,0.171633273,-9.54703045,8541164,-0.000328513794,4.17238334e-05,0.000337827485,8541164,128,81.5000458,-0.141951084,-0.929775536,0,0,0,0,0,0
8593851,-0.00535396812,-0.00623152638,0.652729928,0.757546186,8593851,0.0782805458,-0.228451699,0.319345832,8593851,-0.0325244628,0.160722524,-9.58726883,8593851,0.00096855429,0.00117052638,-8.80197622e-05,8593851,128,81.4999542,-0.140486404,-0.930914581,0,0,0,0,0,0
8646147,-0.00534963282,-0.00622837944,0.652712107,0.757561624,8646147,0.0796755403,-0.233439088,0.320728719,8646147,-0.0390565991,0.158800602,-9.62796307,8646147,0.0012489045,-3.5277335e-06,-0.000518677291,8646147,32896,81.4972534,-0.14055945,-0.930299461,0,0,0,0,0,0
8698792,-0.00534127792,-0.00623252708,0.652716696,0.757557571,8698792,0.0844258294,-0.229489759,0.320970982,8698792,-0.0327065438,0.172834873,-9.58560181,8698792,0.000250377227,0.00172812643,0.0014157705,8698792,128,81.497963,-0.14153868,-0.929885387,0,0,0,0,0,0
8751105,-0.00536057493,-0.00623408705,0.652730882,0.757545352,8751105,0.0807285607,-0.228361651,0.320828348,8751105,-0.0307996217,0.173302725,-9.60991669,8751105,-0.00121481926,-0.000428809435,0.000792698469,8751105,32896,81.5000992,-0.140213296,-0.931679785,0,0,0,0,0,0
8803673,-0.00535607664,-0.00625245739,0.652732372,0.757543862,8803673,0.0784268826,-0.232221887,0.322069377,8803673,-0.0616078377,0.140186101,-9.55044365,8803673,0.000417926116,-0.000233352184,0.000110235531,8803673,128,81.500351,-0.14214249,-0.932663858,0,0,0,0,0,0
8856150,-0.00534210401,-0.00623825239,0.652728558,0.757547379,8856150,0.0806878507,-0.227104381,0.320841461,8856150,0.00655294769,0.160298288,-9.55130863,8856150,-0.000418437645,6.25965185e-05,-4.76185232e-05,8856150,32896,81.4997559,-0.141959384,-0.930387497,0,0,0,0,0,0
8908750,-0.00533094443,-0.00623327214,0.652727485,0.757548451,8908750,0.0843328834,-0.226977304,0.319616407,8908750,-0.00901325606,0.134836435,-9.61073685,8908750,0.000482615083,-0.00143359555,0.000600534026,8908750,128,81.4995804,-0.142363161,-0.929046094,0,0,0,0,0,0
8961177,-0.00533858687,-0.00624036323,0.652755499,0.757524192,8961177,0.0844267607,-0.229492396,0.320973337,8961177,-0.0186579786,0.16920957,-9.62279987,8961177,-3.44947912e-05,-0.000544644136,0.000107731204,8961177,4224,81.5038376,-0.142372638,-0.930245161,0,0,0,0,0,0
9013657,-0.00535039417,-0.00624821335,0.652745485,0.757532656,9013657,0.0807188526,-0.228367805,0.319451869,9013657,-0.0140722059,0.161520004,-9.63053894,9013657,-0.00171723939,-0.000368473877,-0.000265165698,9013657,4224,81.5023346,-0.142183065,-0.931855679,0,0,0,0,0,0
9066334,-0.00533657335,-0.00625620224,0.652733266,0.757543266,9066334,0.0820005238,-0.22957693,0.322250634,9066334,-0.0136565035,0.145693421,-9.67218113,9066334,-2.85774004e-05,0.000481057912,0.000500284135,9066334,55424,81.5004883,-0.143925384,-0.931251109,0,0,0,0,0,0
9118901,-0.0053390502,-0.00625616172,0.652729213,0.757546663,9118901,0.0795938671,-0.230925754,0.320755988,9118901,-0.00485893944,0.164793283,-9.59200287,9118901,-0.000129338354,0.000525217736,0.000576643273,9118901,26752,81.4998856,-0.143741518,-0.931462288,0,0,0,0,0,0
9171181,-0.00534002576,-0.00625649001,0.652731061,0.757545114,9171181,0.0794592127,-0.227154732,0.319414258,9171181,-0.0125812422,0.135991096,-9.58305931,9171181,0.000169291161,0.000626615831,-0.00135911303,9171181,30848,81.5001602,-0.143694803,-0.931571901,0,0,0,0,0,0
9223580,-0.00533173233,-0.00627127942,0.652710021,0.757563174,9223580,0.0806996226,-0.227106005,0.322225451,9223580,-0.0229119565,0.15370129,-9.67415619,9223580,0.000755485147,-0.000239787973,-0.000509547535,9223580,30848,81.4970016,-0.145624831,-0.931954265,0,0,0,0,0,0
9276234,-0.00533743808,-0.00628038915,0.652702689,0.757569313,9276234,0.0807502791,-0.229633287,0.318063855,9276234,-0.0244200788,0.140407339,-9.59071636,9276234,-0.000410882756,-0.000932834693,-0.000309055205,9276234,45184,81.4959106,-0.145997792,-0.933129609,0,0,0,0,0,0
9328859,-0.0053376467,-0.00628318312,0.652685225,0.757584333,9328859,0.0807808638,-0.230894804,0.316672206,9328859,0.00238664867,0.163201213,-9.61260986,9328859,0.00077768974,-0.000243827002,-0.000132261775,9328859,28800,81.4932709,-0.14624621,-0.933353305,0,0,0,0,0,0
9381278,-0.00534864515,-0.00628801063,0.652693152,0.757577479,9381278,0.0831783861,-0.22827822,0.322316855,9381278,-0.0504820123,0.141626135,-9.61760998,9381278,0.000753873959,-0.000377044897,0.000408604275,9381278,39040,81.4944687,-0.145832956,-0.934670687,0,0,0,0,0,0
9433565,-0.00534847286,-0.00629954645,0.652703166,0.757568657,9433565,0.0783021674,-0.2297232,0.3165811,9433565,-0.0278976783,0.175118029,-9.59988976,9433565,-0.000264572212,-5.08341473e-05,0.000133119524,9433565,128,81.4960098,-0.146834791,-0.935520709,0,0,0,0,0,0
9486218,-0.00535260281,-0.00630597305,0.652683318,0.757585764,9486218,0.07952144,-0.229680747,0.31663397,9486218,-0.0423067175,0.170369044,-9.61948872,9486218,0.000645674299,-0.00100754027,-0.000113778748,9486218,32896,81.4930115,-0.147108316,-0.936356246,0,0,0,0,0,0
9538774,-0.00535093388,-0.00629196642,0.652675152,0.757592916,9538774,0.0782218277,-0.225936621,0.32213673,9538774,-0.00631815847,0.153628856,-9.61029816,9538774,-6.6911336e-05,-0.000371225527,-8.3246734e-05,9538774,128,81.4917526,-0.146027356,-0.935162008,0,0,0,0,0,0
9591358,-0.00535966456,-0.00630501937,0.652680159,0.757588387,9591358,0.0843762308,-0.228242293,0.319611222,9591358,-0.0279981699,0.131941453,-9.57511711,9591358,0.000275431899,0.000484793796,-0.000362475403,9591358,128,81.4925308,-0.146501198,-0.936897337,0,0,0,0,0,0
9643801,-0.00535476394,-0.00629061135,0.652662218,0.757604003,9643801,0.0783657804,-0.230976611,0.319329411,9643801,0.0146939792,0.170307934,-9.58510494,9643801,-0.000166783342,-0.000509194389,0.0003538155,9643801,128,81.4897919,-0.145639151,-0.935390592,0,0,0,0,0,0
9696193,-0.00537250005,-0.00628388766,0.652633846,0.757628381,9696193,0.0818667561,-0.225808263,0.32091108,9696193,-0.0427875705,0.143621013,-9.65090942,9696193,0.000449259765,-4.87226062e-05,-0.000461169984,9696193,32896,81.4854965,-0.143763989,-0.93642211,0,0,0,0,0,0
9748777,-0.00536806323,-0.00627374975,0.652644753,0.757619083,9748777,0.0770949125,-0.229764208,0.317910373,9748777,0.00466046017,0.182110742,-9.54284859,9748777,-0.000742158154,-0.00080777437,5.74826263e-05,9748777,128,81.4871368,-0.14320223,-0.9352808,0,0,0,0,0,0
9801283,-0.00537022809,-0.00626851898,0.652654946,0.757610321,9801283,0.0819281265,-0.228332266,0.318128556,9801283,-0.0262125134,0.132996187,-9.61026382,9801283,0.000210249797,-0.00138242531,0.000139992684,9801283,32896,81.4886703,-0.14257367,-0.935079396,0,0,0,0,0,0
9853570,-0.00536587136,-0.00626544282,0.652654409,0.757610917,9853570,0.0820110887,-0.230850175,0.318105161,9853570,-0.0257930644,0.16426605,-9.62065697,9853570,-0.000378390308,-0.00118646235,-4.79444861e-06,9853570,14464,81.4885788,-0.142633185,-0.934470892,0,0,0,0,0,0
9906310,-0.00538431387,-0.00626393221,0.652613401,0.757646084,9906310,0.0807512105,-0.229635566,0.318066299,9906310,-0.0469187871,0.160821438,-9.62227345,9906310,-0.000137577765,-0.000590663345,-0.000285907183,9906310,49280,81.4823761,-0.141173318,-0.935951471,0,0,0,0,0,0
9958857,-0.00538463192,-0.00626920303,0.652630687,0.757631123,9958857,0.083190456,-0.228278697,0.323700011,9958857,0.00429270323,0.168738067,-9.58508492,9958857,-0.000591199612,-0.000410460401,0.000476865564,9958857,14464,81.4850006,-0.141585723,-0.936376512,0,0,0,0,0,0
10011259,-0.00538629852,-0.00626305398,0.65262562,0.757635534,10011259,0.0819073319,-0.228342205,0.315372884,10011259,-0.0335921869,0.153646305,-9.64061832,10011259,-0.000314029865,0.000364702777,-0.000592707656,10011259,14464,81.4842224,-0.140933543,-0.936060429,0,0,0,0,0,0
10063650,-0.00539759779,-0.00626426144,0.652621567,0.757638991,10063650,0.0783362687,-0.22972019,0.32072562,10063650,-0.0196793973,0.154656485,-9.58260918,10063650,0.000695648836,0.000947442837,0.000580141786,10063650,14464,81.4836044,-0.14019832,-0.937131047,0,0,0,0,0,0
10116043,-0.00537006417,-0.00625909818,0.652612448,0.757647038,10116043,0.0818992481,-0.227076679,0.319525421,10116043,0.00296990713,0.167361423,-9.58845615,10116043,0.00076026842,-0.00117084105,0.00188050419,10116043,59520,81.4822235,-0.141820505,-0.934352636,0,0,0,0,0,0
10168912,-0.00537433708,-0.00625377987,0.652601063,0.757656872,10168912,0.0831290185,-0.227031752,0.320957541,10168912,-0.0128770545,0.162864983,-9.60902882,10168912,0.000614559278,-0.00121152331,-0.00072110747,10168912,28800,81.4804993,-0.141053289,-0.934323609,0,0,0,0,0,0
10221271,-0.00536846649,-0.00623981701,0.652585447,0.757670462,10221271,0.0818998143,-0.227079049,0.319527924,10221271,-0.0272111315,0.146575749,-9.63833809,10221271,4.69745137e-05,0.00219100248,-0.000873446465,10221271,128,81.4781113,-0.14029938,-0.932766736,0,0,0,0,0,0
10273567,-0.00538465986,-0.00623541372,0.652575135,0.757679284,10273567,0.080701381,-0.228389114,0.316706806,10273567,-0.00798509829,0.153009251,-9.62264061,10273567,0.000819546869,-0.000790588732,-0.000328931957,10273567,128,81.4765472,-0.138718784,-0.933841527,0,0,0,0,0,0
10326262,-0.00536161195,-0.00624624034,0.652565777,0.75768739,10326262,0.0831710398,-0.228292793,0.320948273,10326262,-0.0143797016,0.175431579,-9.59496117,10326262,-0.000562727218,0.000109740766,-0.000210249797,10326262,32896,81.4751511,-0.141393885,-0.932648301,0,0,0,0,0,0
10378767,-0.00538169546,-0.006249364,0.652572036,0.757681847,10378767,0.0843482986,-0.226990759,0.321011811,10378767,-0.0227519292,0.135696024,-9.58962345,10378767,0.000276422128,0.000862376997,0.000965642743,10378767,128,81.4760971,-0.14015545,-0.934626818,0,0,0,0,0,0
10431098,-0.00537460344,-0.0062378929,0.652552247,0.757699072,10431098,0.0831492543,-0.228298336,0.318188399,10431098,-0.0364928693,0.1633645,-9.63534355,10431098,0.000133195659,0.000920463703,0.00158946449,10431098,128,81.4730911,-0.139714316,-0.933149576,0,0,0,0,0,0
10483474,-0.00538251363,-0.00623412384,0.652557671,0.757694364,10483474,0.0783377737,-0.229725406,0.320730329,10483474,-0.012322031,0.145739794,-9.59109306,10483474,0.000704411184,0.000987673062,0.000162770972,10483474,128,81.4739075,-0.138788819,-0.933555543,0,0,0,0,0,0
10536038,-0.00538434042,-0.00623425469,0.652538538,0.757710814,10536038,0.0770364031,-0.227252454,0.320703208,10536038,-0.020645896,0.149516433,-9.5717907,10536038,-0.000500172609,6.45114342e-05,0.000192814507,10536038,32896,81.4710083,-0.138687149,-0.933720291,0,0,0,0,0,0
10588761,-0.00537663558,-0.00622854056,0.652547717,0.757703006,10588761,0.08561939,-0.228203699,0.322431594,10588761,-0.0110703222,0.18120575,-9.61865425,10588761,0.000582978595,0.000104010222,-0.00041650841,10588761,128,81.4723892,-0.138755932,-0.932625592,0,0,0,0,0,0
10641196,-0.00537287118,-0.00621576002,0.652527571,0.75772047,10641196,0.0795466378,-0.229687795,0.31940493,10641196,-0.0391667821,0.139948875,-9.60272408,10641196,0.00116797304,0.000140186748,0.000129847787,10641196,32896,81.4693298,-0.137952551,-0.931339443,0,0,0,0,0,0
10693736,-0.00536186714,-0.00623189099,0.652505517,0.757739484,10693736,0.0819626823,-0.229608089,0.316749781,10693736,-0.0425368175,0.169871598,-9.59525871,10693736,-0.000761718489,-0.000689011242,0.000660558231,10693736,128,81.466011,-0.140203148,-0.931586206,0,0,0,0,0,0
10746214,-0.00538282655,-0.00622837758,0.652509212,0.757736146,10746214,0.0806613564,-0.227135286,0.31672287,10746214,-0.0142126288,0.166394114,-9.64419651,10746214,0.000602413202,-7.27362931e-07,0.000193074811,10746214,32896,81.466568,-0.138326243,-0.933144152,0,0,0,0,0,0
10798763,-0.00538575789,-0.00623663096,0.652500451,0.757743597,10798763,0.0819649175,-0.228338897,0.322281688,10798763,-0.0306546502,0.128013521,-9.62503624,10798763,2.03279778e-05,0.000516981236,0.000185480807,10798763,128,81.4652557,-0.138834417,-0.934014201,0,0,0,0,0,0
10851086,-0.00537963677,-0.00624509435,0.652467608,0.75777185,10851086,0.0844421387,-0.230782703,0.316843152,10851086,-0.0227944925,0.158739313,-9.60238457,10851086,0.000911759445,0.000114388182,-0.000148899388,10851086,32896,81.4603043,-0.140067458,-0.934109509,0,0,0,0,0,0
10903581,-0.00537815597,-0.00626374315,0.652450383,0.757786512,10903581,0.0770383626,-0.22725977,0.320709735,10903581,-0.0373199806,0.155067623,-9.65429974,10903581,0.00070255599,-0.00158718205,0.000118278898,10903581,128,81.4577255,-0.141818672,-0.935372174,0,0,0,0,0,0
10956130,-0.00535209198,-0.00626923004,0.65247643,0.75776422,10956130,0.0819437951,-0.228347525,0.319524705,10956130,-0.0114109181,0.166857213,-9.60933304,10956130,0.000332006719,-0.000852675992,0.000707963016,10956130,32896,81.4616776,-0.144211814,-0.933524072,0,0,0,0,0,0
11008679,-0.00535429874,-0.00626647845,0.652444363,0.757791877,11008679,0.0831518099,-0.228307754,0.318197012,11008679,-0.020369688,0.167377651,-9.59506607,11008679,0.00147384964,-0.000109010143,0.000103488099,11008679,128,81.45681,-0.143847451,-0.933503866,0,0,0,0,0,0
11061166,-0.00534706051,-0.00627792859,0.652439058,0.757796347,11061166,0.0807885379,-0.22964403,0.322220594,11061166,-0.00773412269,0.176485509,-9.66122818,11061166,-0.000117664225,-0.00152257795,0.000667550135,11061166,30848,81.4560318,-0.145389348,-0.933730483,0,0,0,0,0,0
11113653,-0.00537448097,-0.00627909275,0.652426124,0.757807255,11113653,0.0782468691,-0.227220327,0.319382936,11113653,-0.0578550845,0.129232004,-9.57665634,11113653,8.49110074e-05,-0.000360511127,0.000507171266,11113653,30848,81.4540787,-0.143456206,-0.936196268,0,0,0,0,0,0
11166124,-0.0053673489,-0.00629022345,0.652442336,0.757793307,11166124,0.080777958,-0.229648054,0.320841789,11166124,-0.00482489401,0.167531461,-9.58131027,11166124,-0.000814201543,-0.000528610311,-0.000130034983,11166124,36992,81.456543,-0.144935966,-0.936412156,0,0,0,0,0,0
11219079,-0.00537660019,-0.0063005616,0.65243876,0.757796228,11219079,0.0819445327,-0.228349239,0.319526017,11219079,-0.0563790463,0.120445386,-9.64715004,11219079,2.89089512e-05,-0.00104278454,-8.00094567e-05,11219079,6272,81.4560165,-0.14514631,-0.937987983,0,0,0,0,0,0
11271254,-0.00536386296,-0.00630227756,0.652430296,0.757803559,11271254,0.0843820125,-0.228262454,0.319629282,11271254,-0.0130144348,0.175726831,-9.57435608,11271254,0.000887368806,-0.000358001096,-0.000628622249,11271254,24704,81.4547424,-0.146258116,-0.9370085,0,0,0,0,0,0
11323647,-0.00536588859,-0.00630152179,0.652417064,0.757815003,11323647,0.079559356,-0.229691848,0.320790678,11323647,-0.0316383354,0.152497739,-9.60984039,11323647,0.000711414963,0.000298463972,0.000720490701,11323647,24704,81.4527435,-0.146057457,-0.937125266,0,0,0,0,0,0
11376032,-0.00536316121,-0.00629696529,0.652433157,0.757801175,11376032,0.0807978883,-0.230913118,0.318071038,11376032,-0.0190040935,0.178752512,-9.67813206,11376032,0.00153759005,-0.000380195735,0.000279250089,11376032,34944,81.455162,-0.145845816,-0.936550915,0,0,0,0,0,0
11428666,-0.00536442176,-0.00628920319,0.652430952,0.757803142,11428666,0.0808608234,-0.232165441,0.320818037,11428666,-0.0383174717,0.140743494,-9.57917213,11428666,7.36047514e-05,0.00114700501,-3.53590585e-05,11428666,2176,81.4548264,-0.145080313,-0.936079502,0,0,0,0,0,0
11481189,-0.00536196586,-0.00629478786,0.652423263,0.757809699,11481189,0.0820597336,-0.230857268,0.323640794,11481189,-0.027892746,0.166583717,-9.64561272,11481189,-0.000811607344,-0.000426047831,-0.000815387815,11481189,57472,81.4536667,-0.145758331,-0.936282396,0,0,0,0,0,0
11533718,-0.00536084734,-0.00629539043,0.652405024,0.757825434,11533718,0.0819967762,-0.2296049,0.320893764,11533718,-0.0309759825,0.160627231,-9.61074257,11533718,0.000140006188,0.000383668696,-0.000279185362,11533718,128,81.4509125,-0.145916849,-0.936226785,0,0,0,0,0,0
11586120,-0.00535841146,-0.00629370986,0.65241617,0.757815897,11586120,0.0818619803,-0.225833148,0.319550961,11586120,-0.0179917235,0.149573356,-9.55376053,11586120,-0.000307218637,-0.000512012281,0.000432178844,11586120,32896,81.4525909,-0.145939261,-0.935891688,0,0,0,0,0,0
11638738,-0.00535184704,-0.00629601581,0.652408421,0.757822514,11638738,0.0783212781,-0.228472754,0.323512107,11638738,-0.0226566344,0.162617505,-9.64108944,11638738,-0.00100516225,-0.000525653304,0.000598229934,11638738,128,81.4514313,-0.146639809,-0.935492516,0,0,0,0,0,0
11691250,-0.00535268709,-0.00628838781,0.652402759,0.757827461,11691250,0.086850509,-0.229439199,0.318342388,11691250,-0.0160550289,0.163023204,-9.6346283,11691250,0.000268038595,-0.000187011901,0.000116208103,11691250,128,81.4505615,-0.145921618,-0.934994042,0,0,0,0,0,0
11743772,-0.00536645949,-0.00629181275,0.652397692,0.757831752,11743772,0.0759758502,-0.232345581,0.319235414,11743772,-0.0220236667,0.125456572,-9.6046381,11743772,0.000747512793,0.000713547459,-0.000536623877,11743772,128,81.4497986,-0.145195648,-0.936445236,0,0,0,0,0,0
11796148,-0.00535837747,-0.0062873601,0.652383745,0.757843852,11796148,0.0796123073,-0.230950743,0.322161585,11796148,-0.0523215123,0.161436707,-9.60168648,11796148,-0.000324593158,-0.00165274343,0.00132684456,11796148,49280,81.4476776,-0.145430461,-0.935407579,0,0,0,0,0,0
11848757,-0.00535309361,-0.00627640402,0.652373493,0.757852674,11848757,0.0820392221,-0.230868399,0.320885986,11848757,-0.0165050775,0.161966741,-9.61800098,11848757,-0.000332527095,0.000778902904,0.00023755338,11848757,30848,81.4461212,-0.144886628,-0.934127808,0,0,0,0,0,0
11901174,-0.0053782356,-0.00627100142,0.652377605,0.757849097,11901174,0.0807377174,-0.228394762,0.320858657,11901174,-0.0177225526,0.179041997,-9.57958412,11901174,-0.000726871891,0.000314460834,-8.16523097e-05,11901174,39040,81.4467316,-0.14253284,-0.935908198,0,0,0,0,0,0
11953637,-0.00536436262,-0.00628300011,0.652386069,0.757841825,11953637,0.0770712793,-0.228528574,0.319324911,11953637,-0.0230004955,0.162906855,-9.62521076,11953637,-0.000998625765,-0.00193905551,0.00078048557,11953637,128,81.4480286,-0.144601494,-0.935602009,0,0,0,0,0,0
12006212,-0.00536692142,-0.0062897387,0.652379751,0.75784719,12006212,0.0832063034,-0.229569778,0.319570541,12006212,-0.0304768048,0.153467163,-9.61497974,12006212,0.00106192636,-0.000719353615,-0.00138133392,12006212,32896,81.4470825,-0.14500314,-0.936326861,0,0,0,0,0,0
12058760,-0.00535915606,-0.00628002919,0.652359605,0.757864714,12058760,0.0819877163,-0.229614392,0.31951946,12058760,-0.0179682747,0.163689435,-9.57374859,12058760,-0.000990697183,0.00102232385,0.001398338,12058760,128,81.4440155,-0.144765481,-0.934922516,0,0,0,0,0,0
12111162,-0.00536370929,-0.00628022663,0.652344227,0.757877827,12111162,0.0832479745,-0.23082988,0.319559395,12111162,-0.027303433,0.158213764,-9.63123322,12111162,-0.000239906367,-0.000418533338,-0.000928102992,12111162,128,81.4417038,-0.144461125,-0.935329974,0,0,0,0,0,0
12163726,-0.00537017593,-0.00628417963,0.652370095,0.757855535,12163726,0.0819572136,-0.228353068,0.320911497,12163726,-0.0408333912,0.160740942,-9.61057281,12163726,-9.9693425e-05,0.000521455775,0.00113060977,12163726,128,81.4456177,-0.144289061,-0.936192095,0,0,0,0,0,0
12216119,-0.00537367258,-0.0062775691,0.65235579,0.757867813,12216119,0.0820293203,-0.2308736,0.319508225,12216119,-0.0230864454,0.148802847,-9.55288315,12216119,0.000720171258,0.000901142135,0.000875798054,12216119,32896,81.4434433,-0.143471226,-0.935998797,0,0,0,0,0,0
12268822,-0.00536107272,-0.00627734046,0.652344704,0.757877469,12268822,0.0844469368,-0.229521856,0.322382361,12268822,-0.00107598165,0.158802807,-9.62937546,12268822,-0.000278558582,-0.00089301425,0.000259513035,12268822,128,81.4417725,-0.144407019,-0.934885263,0,0,0,0,0,0
12321243,-0.00535630994,-0.0062739593,0.652322173,0.757897019,12321243,0.0808214769,-0.23091431,0.320836693,12321243,-0.050113529,0.169010773,-9.62805557,12321243,0.000269167591,-0.000530766207,0.000323056243,12321243,128,81.4383469,-0.144497275,-0.934214413,0,0,0,0,0,0
12373538,-0.00535067264,-0.0062659774,0.65233463,0.75788635,12373538,0.0794264004,-0.225926578,0.319453835,12373538,-0.00805559196,0.163719416,-9.55302429,12373538,0.00022787787,-0.000292423763,0.000218168367,12373538,128,81.4402237,-0.144210115,-0.933130443,0,0,0,0,0,0
12426113,-0.00536083616,-0.00626767334,0.652306199,0.757910728,12426113,0.0831346512,-0.227051228,0.320975423,12426113,-0.0121270437,0.131923616,-9.63879967,12426113,0.000106507912,-0.00063416682,-0.000950557878,12426113,32896,81.4359283,-0.143632665,-0.934134603,0,0,0,0,0,0
12478748,-0.00532647735,-0.00627210643,0.652270734,0.757941484,12478748,0.0831761435,-0.228310138,0.32096374,12478748,-0.0398015082,0.158873171,-9.60203934,12478748,0.000567012932,-0.00153462018,0.000528514385,12478748,128,81.4305725,-0.146629691,-0.931474984,0,0,0,0,0,0
12531175,-0.00533592189,-0.00626996718,0.652251422,0.757958055,12531175,0.0819666162,-0.22962229,0.316762447,12531175,-0.0291889664,0.166460037,-9.55864334,12531175,0.000360382255,-0.000744642573,7.90511258e-05,12531175,32896,81.4276428,-0.145761669,-0.932131648,0,0,0,0,0,0
12583549,-0.00532026868,-0.0062698829,0.652280569,0.757933021,12583549,0.0808324739,-0.230912581,0.322217435,12583549,-0.0131435357,0.162194699,-9.62701988,12583549,0.000573994825,0.000178088783,0.000603250694,12583549,128,81.4320602,-0.146888569,-0.93077147,0,0,0,0,0,0
12636027,-0.00534468051,-0.00627231877,0.65227741,0.757935584,12636027,0.0831349045,-0.227052361,0.320976794,12636027,-0.0271758884,0.148398012,-9.61774731,12636027,4.36385162e-05,0.000572260818,-0.000796927139,12636027,32896,81.4315796,-0.145279214,-0.933073282,0,0,0,0,0,0
12688663,-0.00535196252,-0.00627097674,0.652274311,0.757938206,12688663,0.0808309093,-0.232184008,0.316687703,12688663,-0.00965064205,0.162748545,-9.55932617,12688663,0.000123628415,-0.00111743272,0.000866350718,12688663,128,81.4311066,-0.144622147,-0.933604956,0,0,0,0,0,0
12741177,-0.00535841007,-0.00627561007,0.652283847,0.757929921,12741177,0.0758749619,-0.228569999,0.322036296,12741177,-0.033865422,0.146042377,-9.63142681,12741177,0.000142942881,-0.000612524338,-1.3270881e-05,12741177,128,81.4325638,-0.144530833,-0.934512913,0,0,0,0,0,0
12793900,-0.00534407748,-0.00626100414,0.652273655,0.757938862,12793900,0.0771030784,-0.229795709,0.317938268,12793900,-0.00559334271,0.1529769,-9.60693169,12793900,-0.000253047794,-4.5984867e-05,-0.00103999069,12793900,128,81.4310074,-0.144346237,-0.932174444,0,0,0,0,0,0
12846274,-0.00537039153,-0.00624296395,0.652256429,0.757953584,12846274,0.0831865668,-0.229582608,0.316816896,12846274,-0.0295855477,0.15565753,-9.57682419,12846274,-0.000903641805,0.000113042654,-0.00159680471,12846274,32896,81.4283752,-0.140833676,-0.93310827,0,0,0,0,0,0
12898745,-0.00535742426,-0.00625702552,0.652245164,0.7579633,12898745,0.0806772336,-0.227150142,0.318118572,12898745,-0.0493964478,0.1340895,-9.65970993,12898745,0.000489161815,0.000454215682,0.000397058669,12898745,128,81.4266891,-0.143038124,-0.933030903,0,0,0,0,0,0
12951075,-0.00536778383,-0.00625250349,0.652256072,0.757953942,12951075,0.0831562579,-0.228322521,0.318209976,12951075,-0.0337801911,0.163654104,-9.5845623,12951075,-0.000532603124,0.000969153247,-7.317774e-05,12951075,128,81.4283295,-0.141857639,-0.933594823,0,0,0,0,0,0
13003632,-0.00539412443,-0.00624159537,0.65226388,0.757947147,13003632,0.0771149024,-0.229796112,0.319320887,13003632,-0.0389798582,0.143673897,-9.61698723,13003632,-7.59446993e-06,0.00171312899,0.00068240799,13003632,128,81.4294968,-0.138931692,-0.935068667,0,0,0,0,0,0
13056110,-0.00537463417,-0.00624507526,0.652252436,0.757957101,13056110,0.0831567198,-0.228324175,0.318211704,13056110,-0.0305902082,0.146027625,-9.64173126,13056110,0.00091551384,-0.00119270501,-0.000474330503,13056110,32896,81.4277725,-0.140704915,-0.933633745,0,0,0,0,0,0
